[
  {"name": "5th Phase", "latitude": 12.8856, "longitude": 77.5765},
  {"name": "5th Stage BEML Layout", "latitude": 12.9456, "longitude": 77.6234},
  {"name": "5th Stage Raja Rajeshwari Nagar", "latitude": 12.8945, "longitude": 77.4567},
  {"name": "6th phase jp nagar", "latitude": 12.9234, "longitude": 77.6012},
  {"name": "7th Phase JP Nagar", "latitude": 12.9345, "longitude": 77.5890},
  {"name": "8th Phase JP Nagar", "latitude": 12.9456, "longitude": 77.5845},
  {"name": "AECS Layout A Block Singasandra", "latitude": 12.8234, "longitude": 77.6890},
  {"name": "AGS Layout Arehalli", "latitude": 12.9123, "longitude": 77.4456},
  {"name": "Abbigere", "latitude": 13.0234, "longitude": 77.4567},
  {"name": "Adugodi", "latitude": 12.9678, "longitude": 77.6234},
  {"name": "Akshayanagar", "latitude": 12.8456, "longitude": 77.5678},
  {"name": "Amruthahalli", "latitude": 12.9834, "longitude": 77.6345},
  {"name": "Anagalapura Near Hennur Main Road", "latitude": 12.9845, "longitude": 77.6678},
  {"name": "Ananth Nagar", "latitude": 12.8765, "longitude": 77.5234},
  {"name": "Anekal City", "latitude": 12.7234, "longitude": 77.5678},
  {"name": "Anjanapura", "latitude": 12.8456, "longitude": 77.4890},
  {"name": "Anjanapura Township", "latitude": 12.8467, "longitude": 77.4895},
  {"name": "Annapurneshwari Nagar", "latitude": 12.9567, "longitude": 77.5845},
  {"name": "Armane Nagar", "latitude": 12.8234, "longitude": 77.6123},
  {"name": "Ashok Nagar", "latitude": 12.9234, "longitude": 77.5923},
  {"name": "Ashoka Road", "latitude": 12.9456, "longitude": 77.6034},
  {"name": "Ashwathkatte Road", "latitude": 12.9345, "longitude": 77.5678},
  {"name": "Attibele", "latitude": 12.6234, "longitude": 77.5890},
  {"name": "Avalahalli Off Sarjapur Road", "latitude": 12.7845, "longitude": 77.6234},
  {"name": "BEML Layout", "latitude": 12.9234, "longitude": 77.6345},
  {"name": "BEML Layout 5th Stage", "latitude": 12.9345, "longitude": 77.6456},
  {"name": "BTM Layout", "latitude": 12.9123, "longitude": 77.6345},
  {"name": "BTM Layout 2nd Stage", "latitude": 12.9234, "longitude": 77.6456},
  {"name": "Babusa Palya", "latitude": 12.8765, "longitude": 77.5234},
  {"name": "Babusabpalya", "latitude": 12.8756, "longitude": 77.5245},
  {"name": "Badamanavarthekaval", "latitude": 12.8234, "longitude": 77.4567},
  {"name": "Bagalur", "latitude": 13.0156, "longitude": 77.3456},
  {"name": "Bagaluru", "latitude": 13.0145, "longitude": 77.3456},
  {"name": "Bagaluru Near Yelahanka", "latitude": 13.0234, "longitude": 77.4567},
  {"name": "Banashankari", "latitude": 12.8234, "longitude": 77.5678},
  {"name": "Banashankari 5th stage", "latitude": 12.8345, "longitude": 77.5789},
  {"name": "Banashankari Stage III", "latitude": 12.8456, "longitude": 77.5890},
  {"name": "Banaswadi", "latitude": 12.9456, "longitude": 77.6345},
  {"name": "Bangalore Road", "latitude": 12.9234, "longitude": 77.5890},
  {"name": "Bannerghatta", "latitude": 12.7345, "longitude": 77.6234},
  {"name": "Bannerghatta Main Road", "latitude": 12.7456, "longitude": 77.6345},
  {"name": "Bannerghatta Road Jigani", "latitude": 12.7234, "longitude": 77.6123},
  {"name": "Bannerughatta", "latitude": 12.7234, "longitude": 77.6234},
  {"name": "Basapura Main Road", "latitude": 12.8234, "longitude": 77.5123},
  {"name": "Basavanagudi", "latitude": 12.8345, "longitude": 77.5789},
  {"name": "Basaveswarnagar", "latitude": 12.8456, "longitude": 77.5890},
  {"name": "Battarahalli", "latitude": 12.9234, "longitude": 77.5890},
  {"name": "Begur", "latitude": 12.7456, "longitude": 77.6345},
  {"name": "Begur Road", "latitude": 12.7567, "longitude": 77.6456},
  {"name": "Bellandur", "latitude": 12.8945, "longitude": 77.6678},
  {"name": "Bellari Road", "latitude": 12.9234, "longitude": 77.5345},
  {"name": "Bendre Nagar", "latitude": 12.8234, "longitude": 77.5567},
  {"name": "Bengaluru Kanakapura Road", "latitude": 12.8234, "longitude": 77.5123},
  {"name": "Bennigana Halli", "latitude": 12.7345, "longitude": 77.6234},
  {"name": "Benson Town", "latitude": 12.9756, "longitude": 77.6123},
  {"name": "Bharath Housing Society Layout", "latitude": 12.8234, "longitude": 77.5678},
  {"name": "Bhoopasandra", "latitude": 12.9234, "longitude": 77.6234},
  {"name": "Bikasipura", "latitude": 12.8234, "longitude": 77.5890},
  {"name": "Bilekahalli", "latitude": 12.9345, "longitude": 77.6345},
  {"name": "Bileshivale", "latitude": 12.8234, "longitude": 77.5234},
  {"name": "Bommanahalli", "latitude": 12.8234, "longitude": 77.5678},
  {"name": "Bommasandra", "latitude": 12.6234, "longitude": 77.5123},
  {"name": "Brookefield", "latitude": 12.8945, "longitude": 77.6123},
  {"name": "Budigere", "latitude": 12.9234, "longitude": 77.6890},
  {"name": "Budigere Cross", "latitude": 12.9245, "longitude": 77.6901},
  {"name": "Byrathi", "latitude": 12.8234, "longitude": 77.4234},
  {"name": "CV Raman Nagar", "latitude": 12.9456, "longitude": 77.6234},
  {"name": "CV Raman Nagar Kaggadasapura", "latitude": 12.9567, "longitude": 77.6345},
  {"name": "Carmelaram", "latitude": 12.8234, "longitude": 77.6234},
  {"name": "Chamrajpet", "latitude": 12.8456, "longitude": 77.5890},
  {"name": "Chandapura", "latitude": 12.6234, "longitude": 77.6345},
  {"name": "Chandapura Anekal Road", "latitude": 12.6345, "longitude": 77.6456},
  {"name": "Chandra Layout Extension", "latitude": 12.8234, "longitude": 77.5678},
  {"name": "Channasandra Layout", "latitude": 12.9345, "longitude": 77.6234},
  {"name": "Chikkagubbi on Hennur Main Road", "latitude": 12.9456, "longitude": 77.6345},
  {"name": "Chikkalasandra", "latitude": 12.9567, "longitude": 77.6456},
  {"name": "Chikkanayakanahalli at Off Sarjapur", "latitude": 12.7234, "longitude": 77.5890},
  {"name": "Cooke Town", "latitude": 12.9654, "longitude": 77.6234},
  {"name": "Cox Town", "latitude": 12.9456, "longitude": 77.6345},
  {"name": "Dasarahalli", "latitude": 12.9234, "longitude": 77.4567},
  {"name": "Dasarahalli on Tumkur Road", "latitude": 12.9345, "longitude": 77.4678},
  {"name": "Devanahalli", "latitude": 13.0234, "longitude": 77.3456},
  {"name": "Devarachikkana Halli", "latitude": 12.9234, "longitude": 77.6345},
  {"name": "Dodda Banaswadi", "latitude": 12.9234, "longitude": 77.6890},
  {"name": "Doddaballapur", "latitude": 13.1234, "longitude": 77.3456},
  {"name": "Doddanekundi", "latitude": 12.9456, "longitude": 77.6234},
  {"name": "Domlur", "latitude": 12.9345, "longitude": 77.6234},
  {"name": "Domlur Layout", "latitude": 12.9356, "longitude": 77.6245},
  {"name": "DrVishnuvardhan Road", "latitude": 12.9234, "longitude": 77.6012},
  {"name": "Dwaraka Nagar", "latitude": 12.8456, "longitude": 77.5890},
  {"name": "EPIP Zone", "latitude": 12.9234, "longitude": 77.6345},
  {"name": "Electronic City Phase 1", "latitude": 12.8234, "longitude": 77.6890},
  {"name": "Electronic City Phase 2", "latitude": 12.8345, "longitude": 77.7001},
  {"name": "Electronic City Phase I", "latitude": 12.8234, "longitude": 77.6890},
  {"name": "Electronics City", "latitude": 12.8234, "longitude": 77.6890},
  {"name": "Frazer Town", "latitude": 12.9234, "longitude": 77.5678},
  {"name": "Geddalahalli", "latitude": 12.9234, "longitude": 77.6234},
  {"name": "Gottigere", "latitude": 12.7345, "longitude": 77.5678},
  {"name": "Gubbalala Main Road", "latitude": 12.8234, "longitude": 77.5678},
  {"name": "Gunjur Balagere Road", "latitude": 12.8234, "longitude": 77.5345},
  {"name": "HAL", "latitude": 12.8456, "longitude": 77.6345},
  {"name": "HBR Layout", "latitude": 12.9234, "longitude": 77.5890},
  {"name": "HBR Layout 4th Block", "latitude": 12.9245, "longitude": 77.5901},
  {"name": "HSR Layout", "latitude": 12.9345, "longitude": 77.6234},
  {"name": "Hallehalli", "latitude": 12.8234, "longitude": 77.5678},
  {"name": "Harlur", "latitude": 12.8456, "longitude": 77.6789},
  {"name": "Hebbal", "latitude": 13.0234, "longitude": 77.5567},
  {"name": "Hegde Nagar", "latitude": 12.9456, "longitude": 77.5234},
  {"name": "Hennagara", "latitude": 12.9234, "longitude": 77.6345},
  {"name": "Hennagara Main Road", "latitude": 12.9245, "longitude": 77.6356},
  {"name": "Hennur", "latitude": 12.9456, "longitude": 77.6234},
  {"name": "Hennur Main Road", "latitude": 12.9567, "longitude": 77.6345},
  {"name": "Hennur Road", "latitude": 12.9456, "longitude": 77.6234},
  {"name": "Horamavu", "latitude": 12.9234, "longitude": 77.6890},
  {"name": "Horamavu Banjara Lyout", "latitude": 12.9245, "longitude": 77.6901},
  {"name": "Hosa Road", "latitude": 12.8456, "longitude": 77.6345},
  {"name": "Hosa Road Electronic City", "latitude": 12.8567, "longitude": 77.6456},
  {"name": "Hosa Road Junction", "latitude": 12.8478, "longitude": 77.6367},
  {"name": "Hosakerehalli", "latitude": 12.7234, "longitude": 77.5890},
  {"name": "Hoskote", "latitude": 12.8234, "longitude": 77.7234},
  {"name": "Hosur Main Road", "latitude": 12.8234, "longitude": 77.6234},
  {"name": "Hulimavu", "latitude": 12.8345, "longitude": 77.6345},
  {"name": "Hurulichikanahalli", "latitude": 12.9234, "longitude": 77.6234},
  {"name": "ISRO Layout", "latitude": 12.8456, "longitude": 77.5678},
  {"name": "ITPL", "latitude": 12.8945, "longitude": 77.6456},
  {"name": "Ideal Homes Co Operative Housing Society", "latitude": 12.9234, "longitude": 77.5890},
  {"name": "Indira Nagar", "latitude": 12.9456, "longitude": 77.6234},
  {"name": "Infantry Road", "latitude": 12.9567, "longitude": 77.6123},
  {"name": "J. P. Nagar", "latitude": 12.9234, "longitude": 77.5678},
  {"name": "JP Nagar", "latitude": 12.9234, "longitude": 77.5678},
  {"name": "JP Nagar 8th Phase", "latitude": 12.9456, "longitude": 77.5845},
  {"name": "JP Nagar Phase 1", "latitude": 12.9234, "longitude": 77.5890},
  {"name": "JP Nagar Phase 2", "latitude": 12.9345, "longitude": 77.5901},
  {"name": "JP Nagar Phase 3", "latitude": 12.9234, "longitude": 77.5845},
  {"name": "JP Nagar Phase 4", "latitude": 12.9234, "longitude": 77.5890},
  {"name": "JP Nagar Phase 5", "latitude": 12.9345, "longitude": 77.5901},
  {"name": "JP Nagar Phase 6", "latitude": 12.9234, "longitude": 77.5845},
  {"name": "JP Nagar Phase 7", "latitude": 12.9234, "longitude": 77.5890},
  {"name": "JP Nagar Phase 8", "latitude": 12.9456, "longitude": 77.5845},
  {"name": "JP Nagar Phase 9", "latitude": 12.9567, "longitude": 77.5956},
  {"name": "Jaibharath Nagar Bangalore", "latitude": 12.8234, "longitude": 77.5678},
  {"name": "Jakkur", "latitude": 13.0234, "longitude": 77.5456},
  {"name": "Jalahalli", "latitude": 13.0234, "longitude": 77.5234},
  {"name": "Jalahalli West", "latitude": 13.0345, "longitude": 77.5345},
  {"name": "Jayanagar", "latitude": 12.9345, "longitude": 77.6234},
  {"name": "Jigani", "latitude": 12.7234, "longitude": 77.5678},
  {"name": "Junnasandra", "latitude": 12.8234, "longitude": 77.6234},
  {"name": "K C Krishna Reddy Layout", "latitude": 12.9234, "longitude": 77.5890},
  {"name": "K P Main Road", "latitude": 12.8234, "longitude": 77.5678},
  {"name": "K. Chudahalli", "latitude": 12.8456, "longitude": 77.5890},
  {"name": "KPC Layout", "latitude": 12.9234, "longitude": 77.6345},
  {"name": "KR Puram Bhattarahalli", "latitude": 12.9234, "longitude": 77.6234},
  {"name": "KR Puram Old Madras Road", "latitude": 12.9345, "longitude": 77.6345},
  {"name": "Kachanayakanahalli", "latitude": 12.8234, "longitude": 77.5678},
  {"name": "Kadathanamale", "latitude": 12.9234, "longitude": 77.6234},
  {"name": "Kadugodi", "latitude": 12.8956, "longitude": 77.6890},
  {"name": "Kadugodi Industrial Area", "latitude": 12.8967, "longitude": 77.6901},
  {"name": "Kadugondanahalli", "latitude": 12.9234, "longitude": 77.6345},
  {"name": "Kaggadasapura", "latitude": 12.9456, "longitude": 77.6234},
  {"name": "Kalkere", "latitude": 12.8234, "longitude": 77.5678},
  {"name": "Kalyan Nagar", "latitude": 12.9234, "longitude": 77.6345},
  {"name": "Kambipura", "latitude": 12.8234, "longitude": 77.5890},
  {"name": "Kammanahalli", "latitude": 12.9456, "longitude": 77.6234},
  {"name": "Kammmanhalli", "latitude": 12.9456, "longitude": 77.6234},
  {"name": "Kanakapura", "latitude": 12.8234, "longitude": 77.5678},
  {"name": "Kanakapura Road Beyond Nice Ring Road", "latitude": 12.8345, "longitude": 77.5789},
  {"name": "Kannamangala", "latitude": 12.8234, "longitude": 77.5234},
  {"name": "Kannur on Thanisandra Main Road", "latitude": 12.9456, "longitude": 77.5234},
  {"name": "Kartik Nagar", "latitude": 12.8234, "longitude": 77.6234},
  {"name": "Kasavanahalli", "latitude": 12.9234, "longitude": 77.6890},
  {"name": "Kathriguppe", "latitude": 12.8456, "longitude": 77.5678},
  {"name": "Kaval Byrasandra", "latitude": 12.8234, "longitude": 77.6234},
  {"name": "Kenchena Halli Road", "latitude": 12.9234, "longitude": 77.6345},
  {"name": "Kengeri", "latitude": 12.8234, "longitude": 77.5123},
  {"name": "Kodigehalli", "latitude": 12.9234, "longitude": 77.5456},
  {"name": "Kodihalli on Old Airport Road", "latitude": 12.9345, "longitude": 77.5567},
  {"name": "Kodipalya", "latitude": 12.9234, "longitude": 77.5678},
  {"name": "Kogilu", "latitude": 12.8234, "longitude": 77.6234},
  {"name": "Kogilu Road Near Yelahanka", "latitude": 13.0234, "longitude": 77.5567},
  {"name": "Konanakunte", "latitude": 12.8234, "longitude": 77.5678},
  {"name": "Koppa Begur Road", "latitude": 12.7234, "longitude": 77.6234},
  {"name": "Koramangala", "latitude": 12.9345, "longitude": 77.6345},
  {"name": "Kothanur", "latitude": 12.9234, "longitude": 77.6234},
  {"name": "Krishna Garden Road", "latitude": 12.8234, "longitude": 77.5890},
  {"name": "Krishnarajapura", "latitude": 12.9234, "longitude": 77.6234},
  {"name": "Kudlu", "latitude": 12.8234, "longitude": 77.6345},
  {"name": "Kudlu Gate", "latitude": 12.8245, "longitude": 77.6356},
  {"name": "Kumaraswamy Layout", "latitude": 12.9234, "longitude": 77.5890},
  {"name": "Kumaraswamy Layout Vittal Nagar", "latitude": 12.9245, "longitude": 77.5901},
  {"name": "Kumbalgodu", "latitude": 12.8234, "longitude": 77.5123},
  {"name": "Kundalahalli", "latitude": 12.8945, "longitude": 77.6678},
  {"name": "Kuvempu Layout on Hennur Main Road", "latitude": 12.9456, "longitude": 77.6234},
  {"name": "Lavelle Road", "latitude": 12.9456, "longitude": 77.6123},
  {"name": "Lingadheeranahalli", "latitude": 12.9234, "longitude": 77.6345},
  {"name": "Lingarajapuram", "latitude": 12.9456, "longitude": 77.6234},
  {"name": "MS Ramaiah North City Manayata Tech Park", "latitude": 12.8945, "longitude": 77.6456},
  {"name": "Mahadevapura", "latitude": 12.9234, "longitude": 77.6789},
  {"name": "Mallasandra", "latitude": 12.8234, "longitude": 77.5678},
  {"name": "Malleswaram", "latitude": 13.0234, "longitude": 77.5678},
  {"name": "Manayata Tech Park", "latitude": 12.8945, "longitude": 77.6456},
  {"name": "Manyata Tech Park Nagawara", "latitude": 12.8956, "longitude": 77.6467},
  {"name": "Marathahalli", "latitude": 12.8956, "longitude": 77.6789},
  {"name": "Marsur", "latitude": 12.7234, "longitude": 77.6234},
  {"name": "Maruthi Sevanagar", "latitude": 12.8234, "longitude": 77.5890},
  {"name": "Medaralli", "latitude": 12.9234, "longitude": 77.6345},
  {"name": "Muneshwara Nagar", "latitude": 12.8234, "longitude": 77.5678},
  {"name": "Munnekollal", "latitude": 12.8456, "longitude": 77.6345},
  {"name": "Murugesh Palya", "latitude": 12.9234, "longitude": 77.5678},
  {"name": "Mysore Road", "latitude": 12.8456, "longitude": 77.5890},
  {"name": "NRI Layout", "latitude": 12.9234, "longitude": 77.5890},
  {"name": "Nagarbhavi", "latitude": 12.8234, "longitude": 77.5456},
  {"name": "Nagasandra", "latitude": 12.9234, "longitude": 77.4567},
  {"name": "Nagavara", "latitude": 12.9456, "longitude": 77.6234},
  {"name": "Nagawara", "latitude": 12.9456, "longitude": 77.6234},
  {"name": "Nandini Layout", "latitude": 12.9234, "longitude": 77.6234},
  {"name": "Narayanaghatta", "latitude": 12.8234, "longitude": 77.5890},
  {"name": "Narayanapura", "latitude": 12.9234, "longitude": 77.6234},
  {"name": "Narayanapura on Hennur Main Road", "latitude": 12.9345, "longitude": 77.6345},
  {"name": "Nayandahalli", "latitude": 12.8234, "longitude": 77.5678},
  {"name": "Near Peenya Industrial Area", "latitude": 12.9234, "longitude": 77.4234},
  {"name": "Nelamangala", "latitude": 13.1234, "longitude": 77.4567},
  {"name": "Nirman Layout", "latitude": 12.8234, "longitude": 77.5678},
  {"name": "OMBR Layout", "latitude": 12.9234, "longitude": 77.6234},
  {"name": "Off Bannerghatta Road", "latitude": 12.7234, "longitude": 77.6345},
  {"name": "Off Cunningham Road", "latitude": 12.9456, "longitude": 77.6234},
  {"name": "Padmanabha Nagar", "latitude": 12.8456, "longitude": 77.5890},
  {"name": "Padmanabhanagar", "latitude": 12.8567, "longitude": 77.6001},
  {"name": "Panathur Road", "latitude": 12.8456, "longitude": 77.6234},
  {"name": "Pattanagere", "latitude": 13.0234, "longitude": 77.4567},
  {"name": "Pattanagere Main Road", "latitude": 13.0345, "longitude": 77.4678},
  {"name": "Poorna Pragna Layout", "latitude": 12.8234, "longitude": 77.5678},
  {"name": "Poornapragna Housing Society L", "latitude": 12.8245, "longitude": 77.5689},
  {"name": "Poornapragna Housing Society Layout", "latitude": 12.8234, "longitude": 77.5678},
  {"name": "Poornaprajna Layout", "latitude": 12.8234, "longitude": 77.5678},
  {"name": "R T  Nagar", "latitude": 12.8456, "longitude": 77.5890},
  {"name": "R.K. Hegde Nagar", "latitude": 12.9234, "longitude": 77.6123},
  {"name": "RMV", "latitude": 13.0234, "longitude": 77.5678},
  {"name": "RMV 2nd Stage", "latitude": 13.0345, "longitude": 77.5789},
  {"name": "RMV Extension Stage 2", "latitude": 13.0456, "longitude": 77.5890},
  {"name": "RR Nagar", "latitude": 12.8234, "longitude": 77.5456},
  {"name": "RR Nagar Main Road", "latitude": 12.8245, "longitude": 77.5467},
  {"name": "RT Nager", "latitude": 12.8456, "longitude": 77.5890},
  {"name": "Raja Rajeshwari Nagar 5th Stage", "latitude": 12.8945, "longitude": 77.4567},
  {"name": "Rajajinagar", "latitude": 12.9234, "longitude": 77.5234},
  {"name": "Rajarajeshwari nagar", "latitude": 12.8945, "longitude": 77.4567},
  {"name": "Rajarajeswari Nagar", "latitude": 12.8945, "longitude": 77.4567},
  {"name": "Ramagondanahalli", "latitude": 12.9234, "longitude": 77.5890},
  {"name": "Ramamurthy Nagar", "latitude": 12.9456, "longitude": 77.6234},
  {"name": "Ramanjaneyanagar", "latitude": 12.8234, "longitude": 77.5678},
  {"name": "Residential Flat Uttarahalli Hobli", "latitude": 12.7234, "longitude": 77.4890},
  {"name": "Residential FlatUttarahalli Hobli", "latitude": 12.7234, "longitude": 77.4890},
  {"name": "Richards Town", "latitude": 12.9456, "longitude": 77.6234},
  {"name": "Richmond Town", "latitude": 12.9567, "longitude": 77.6345},
  {"name": "Sadashiva Nagar", "latitude": 12.9234, "longitude": 77.6345},
  {"name": "Sahakar Nagar", "latitude": 12.9234, "longitude": 77.5234},
  {"name": "Sampangiram Nagar", "latitude": 12.8234, "longitude": 77.5890},
  {"name": "Sanjay Nagar", "latitude": 12.9456, "longitude": 77.6234},
  {"name": "Sanjaynagar", "latitude": 12.9456, "longitude": 77.6234},
  {"name": "Sanjeevini Nagar", "latitude": 12.8234, "longitude": 77.5890},
  {"name": "Sarjapur", "latitude": 12.7456, "longitude": 77.6789},
  {"name": "Sarjapur Attibele", "latitude": 12.7567, "longitude": 77.6890},
  {"name": "Sarjapur Road", "latitude": 12.7678, "longitude": 77.7001},
  {"name": "Sarjapur Road Till Wipro", "latitude": 12.7789, "longitude": 77.7112},
  {"name": "Sarjapur Road Wipro To Railway Crossing", "latitude": 12.7890, "longitude": 77.7223},
  {"name": "Seegehalli Road", "latitude": 12.8234, "longitude": 77.5890},
  {"name": "Shivaji Nagar", "latitude": 12.9234, "longitude": 77.6345},
  {"name": "Sidedahalli", "latitude": 12.8234, "longitude": 77.5678},
  {"name": "Sindhi Colony", "latitude": 12.9456, "longitude": 77.6234},
  {"name": "Singasandra", "latitude": 12.8234, "longitude": 77.6890},
  {"name": "Sompura", "latitude": 12.8456, "longitude": 77.5890},
  {"name": "Sompura Gate", "latitude": 12.8567, "longitude": 77.6001},
  {"name": "Sri Krishna Garden Layout", "latitude": 12.9234, "longitude": 77.5890},
  {"name": "Subramanyapura", "latitude": 12.8234, "longitude": 77.5123},
  {"name": "T C Palya Main Road", "latitude": 12.8234, "longitude": 77.5890},
  {"name": "TC Palya Road", "latitude": 12.8234, "longitude": 77.5890},
  {"name": "Talaghattapura", "latitude": 12.7234, "longitude": 77.5890},
  {"name": "Telecom Layout Thanisandra", "latitude": 12.9234, "longitude": 77.5234},
  {"name": "Thanisandra", "latitude": 12.9234, "longitude": 77.5234},
  {"name": "Thanisandra Main Road", "latitude": 12.9245, "longitude": 77.5245},
  {"name": "Ullal Uppanagar", "latitude": 12.8234, "longitude": 77.5234},
  {"name": "Ulsoor", "latitude": 12.9456, "longitude": 77.6345},
  {"name": "Uttarahalli", "latitude": 12.7234, "longitude": 77.4890},
  {"name": "Uttarahalli Hobli", "latitude": 12.7345, "longitude": 77.5001},
  {"name": "Uttarahalli Main Road", "latitude": 12.7456, "longitude": 77.5112},
  {"name": "Uttarahalli Road", "latitude": 12.7234, "longitude": 77.4890},
  {"name": "Varthur", "latitude": 12.8945, "longitude": 77.6789},
  {"name": "Vasanth Nagar", "latitude": 12.9234, "longitude": 77.6345},
  {"name": "Vasanthapura Main Road", "latitude": 12.9245, "longitude": 77.6356},
  {"name": "Vidyaranyapura", "latitude": 12.9234, "longitude": 77.4890},
  {"name": "Vijaya Bank Layout", "latitude": 12.8234, "longitude": 77.5890},
  {"name": "Volagerekallahalli", "latitude": 12.8234, "longitude": 77.5678},
  {"name": "Wheeler Road Extension", "latitude": 12.9456, "longitude": 77.6234},
  {"name": "White Field", "latitude": 12.8945, "longitude": 77.6678},
  {"name": "Whitefield", "latitude": 12.8945, "longitude": 77.6678},
  {"name": "Whitefield Hope Farm Junction", "latitude": 12.9056, "longitude": 77.6789},
  {"name": "Whitefield Road", "latitude": 12.8956, "longitude": 77.6689},
  {"name": "Yelahanka", "latitude": 13.0234, "longitude": 77.5567},
  {"name": "Yelahanka New Town", "latitude": 13.0345, "longitude": 77.5678},
  {"name": "Yerthiganahalli", "latitude": 12.8234, "longitude": 77.5890},
  {"name": "Yeshwantpur", "latitude": 13.0234, "longitude": 77.5234},
  {"name": "hebbal kempapura", "latitude": 13.0234, "longitude": 77.5678},
  {"name": "sarjapura attibele road", "latitude": 12.7567, "longitude": 77.6890}
]
